[
  {
    "speciesCode": "codpet1",
    "comName": "Common Diving-Petrel",
    "sciName": "Pelecanoides urinatrix",
    "locId": "L23253165",
    "locName": "Sydatlanten (-59.5573,-63.3247)",
    "obsDt": "2023-03-25 15:59",
    "howMany": 4,
    "lat": -59.55734,
    "lng": -63.32472,
    "obsValid": true,
    "obsReviewed": false,
    "locationPrivate": true,
    "subId": "S131981023"
  },
  {
    "speciesCode": "angpet1",
    "comName": "Southern Giant-Petrel",
    "sciName": "Macronectes giganteus",
    "locId": "L23253165",
    "locName": "Sydatlanten (-59.5573,-63.3247)",
    "obsDt": "2023-03-25 15:59",
    "howMany": 10,
    "lat": -59.55734,
    "lng": -63.32472,
    "obsValid": true,
    "obsReviewed": false,
    "locationPrivate": true,
    "subId": "S131981023"
  },
  {
    "speciesCode": "whcpet1",
    "comName": "White-chinned Petrel",
    "sciName": "Procellaria aequinoctialis",
    "locId": "L23253165",
    "locName": "Sydatlanten (-59.5573,-63.3247)",
    "obsDt": "2023-03-25 15:59",
    "howMany": 3,
    "lat": -59.55734,
    "lng": -63.32472,
    "obsValid": true,
    "obsReviewed": false,
    "locationPrivate": true,
    "subId": "S131981023"
  },
  {
    "speciesCode": "soppet1",
    "comName": "Soft-plumaged Petrel",
    "sciName": "Pterodroma mollis",
    "locId": "L23253165",
    "locName": "Sydatlanten (-59.5573,-63.3247)",
    "obsDt": "2023-03-25 15:59",
    "howMany": 14,
    "lat": -59.55734,
    "lng": -63.32472,
    "obsValid": true,
    "obsReviewed": false,
    "locationPrivate": true,
    "subId": "S131981023"
  },
  {
    "speciesCode": "slbpri1",
    "comName": "Slender-billed Prion",
    "sciName": "Pachyptila belcheri",
    "locId": "L23253165",
    "locName": "Sydatlanten (-59.5573,-63.3247)",
    "obsDt": "2023-03-25 15:59",
    "howMany": 2,
    "lat": -59.55734,
    "lng": -63.32472,
    "obsValid": true,
    "obsReviewed": false,
    "locationPrivate": true,
    "subId": "S131981023"
  },
  {
    "speciesCode": "bbspet1",
    "comName": "Black-bellied Storm-Petrel",
    "sciName": "Fregetta tropica",
    "locId": "L23253165",
    "locName": "Sydatlanten (-59.5573,-63.3247)",
    "obsDt": "2023-03-25 15:59",
    "howMany": 2,
    "lat": -59.55734,
    "lng": -63.32472,
    "obsValid": true,
    "obsReviewed": false,
    "locationPrivate": true,
    "subId": "S131981023"
  },
  {
    "speciesCode": "bkbalb",
    "comName": "Black-browed Albatross",
    "sciName": "Thalassarche melanophris",
    "locId": "L23253165",
    "locName": "Sydatlanten (-59.5573,-63.3247)",
    "obsDt": "2023-03-25 15:59",
    "howMany": 2,
    "lat": -59.55734,
    "lng": -63.32472,
    "obsValid": true,
    "obsReviewed": false,
    "locationPrivate": true,
    "subId": "S131981023"
  },
  {
    "speciesCode": "blupet1",
    "comName": "Blue Petrel",
    "sciName": "Halobaena caerulea",
    "locId": "L23253165",
    "locName": "Sydatlanten (-59.5573,-63.3247)",
    "obsDt": "2023-03-25 15:59",
    "howMany": 500,
    "lat": -59.55734,
    "lng": -63.32472,
    "obsValid": true,
    "obsReviewed": false,
    "locationPrivate": true,
    "subId": "S131981023"
  },
  {
    "speciesCode": "dovpri1",
    "comName": "Antarctic Prion",
    "sciName": "Pachyptila desolata",
    "locId": "L23253165",
    "locName": "Sydatlanten (-59.5573,-63.3247)",
    "obsDt": "2023-03-25 15:59",
    "howMany": 2,
    "lat": -59.55734,
    "lng": -63.32472,
    "obsValid": true,
    "obsReviewed": false,
    "locationPrivate": true,
    "subId": "S131981023"
  },
  {
    "speciesCode": "cappet",
    "comName": "Cape Petrel",
    "sciName": "Daption capense",
    "locId": "L23253165",
    "locName": "Sydatlanten (-59.5573,-63.3247)",
    "obsDt": "2023-03-25 15:59",
    "howMany": 2,
    "lat": -59.55734,
    "lng": -63.32472,
    "obsValid": true,
    "obsReviewed": false,
    "locationPrivate": true,
    "subId": "S131981023"
  },
  {
    "speciesCode": "wispet",
    "comName": "Wilson's Storm-Petrel",
    "sciName": "Oceanites oceanicus",
    "locId": "L23248050",
    "locName": "Extreme Southern Drake Passage.",
    "obsDt": "2023-03-25 07:58",
    "howMany": 1,
    "lat": -59.3379427,
    "lng": -62.3167617,
    "obsValid": true,
    "obsReviewed": false,
    "locationPrivate": true,
    "subId": "S131951623"
  },
  {
    "speciesCode": "gyhalb",
    "comName": "Gray-headed Albatross",
    "sciName": "Thalassarche chrysostoma",
    "locId": "L23248050",
    "locName": "Extreme Southern Drake Passage.",
    "obsDt": "2023-03-25 07:58",
    "howMany": 1,
    "lat": -59.3379427,
    "lng": -62.3167617,
    "obsValid": true,
    "obsReviewed": false,
    "locationPrivate": true,
    "subId": "S131951623"
  },
  {
    "speciesCode": "kerpet2",
    "comName": "Kerguelen Petrel",
    "sciName": "Aphrodroma brevirostris",
    "locId": "L23248050",
    "locName": "Extreme Southern Drake Passage.",
    "obsDt": "2023-03-25 07:58",
    "howMany": 1,
    "lat": -59.3379427,
    "lng": -62.3167617,
    "obsValid": true,
    "obsReviewed": false,
    "locationPrivate": true,
    "subId": "S131951623"
  },
  {
    "speciesCode": "brnsku3",
    "comName": "Brown Skua",
    "sciName": "Stercorarius antarcticus",
    "locId": "L2941523",
    "locName": "Kitchen Point",
    "obsDt": "2023-03-24 16:51",
    "howMany": 1,
    "lat": -62.388889,
    "lng": -59.352778,
    "obsValid": true,
    "obsReviewed": false,
    "locationPrivate": false,
    "subId": "S131951566"
  },
  {
    "speciesCode": "chipen2",
    "comName": "Chinstrap Penguin",
    "sciName": "Pygoscelis antarcticus",
    "locId": "L23197427",
    "locName": "Auto selected",
    "obsDt": "2023-03-24 14:01",
    "howMany": 3,
    "lat": -60.2099412,
    "lng": -49.0481863,
    "obsValid": true,
    "obsReviewed": false,
    "locationPrivate": true,
    "subId": "S131687921"
  },
  {
    "speciesCode": "souful1",
    "comName": "Southern Fulmar",
    "sciName": "Fulmarus glacialoides",
    "locId": "L23253132",
    "locName": "Auto selected -62.57979, -59.54308",
    "obsDt": "2023-03-24 12:47",
    "howMany": 2,
    "lat": -62.579791,
    "lng": -59.543077,
    "obsValid": true,
    "obsReviewed": false,
    "locationPrivate": true,
    "subId": "S131980852"
  },
  {
    "speciesCode": "antter1",
    "comName": "Antarctic Tern",
    "sciName": "Sterna vittata",
    "locId": "L23253132",
    "locName": "Auto selected -62.57979, -59.54308",
    "obsDt": "2023-03-24 12:47",
    "howMany": 1,
    "lat": -62.579791,
    "lng": -59.543077,
    "obsValid": true,
    "obsReviewed": false,
    "locationPrivate": true,
    "subId": "S131980852"
  },
  {
    "speciesCode": "genpen1",
    "comName": "Gentoo Penguin",
    "sciName": "Pygoscelis papua",
    "locId": "L23253132",
    "locName": "Auto selected -62.57979, -59.54308",
    "obsDt": "2023-03-24 12:47",
    "howMany": 6,
    "lat": -62.579791,
    "lng": -59.543077,
    "obsValid": true,
    "obsReviewed": false,
    "locationPrivate": true,
    "subId": "S131980852"
  },
  {
    "speciesCode": "snoshe2",
    "comName": "Snowy Sheathbill",
    "sciName": "Chionis albus",
    "locId": "L2941452",
    "locName": "Deception Island--Whaler's Bay",
    "obsDt": "2023-03-24 09:24",
    "howMany": 2,
    "lat": -62.983232,
    "lng": -60.561715,
    "obsValid": true,
    "obsReviewed": false,
    "locationPrivate": false,
    "subId": "S131981091"
  },
  {
    "speciesCode": "kelgul",
    "comName": "Kelp Gull",
    "sciName": "Larus dominicanus",
    "locId": "L2941452",
    "locName": "Deception Island--Whaler's Bay",
    "obsDt": "2023-03-24 09:24",
    "howMany": 100,
    "lat": -62.983232,
    "lng": -60.561715,
    "obsValid": true,
    "obsReviewed": false,
    "locationPrivate": false,
    "subId": "S131981091"
  },
  {
    "speciesCode": "antsha1",
    "comName": "Antarctic Shag",
    "sciName": "Leucocarbo bransfieldensis",
    "locId": "L2941452",
    "locName": "Deception Island--Whaler's Bay",
    "obsDt": "2023-03-24 09:24",
    "howMany": 50,
    "lat": -62.983232,
    "lng": -60.561715,
    "obsValid": true,
    "obsReviewed": false,
    "locationPrivate": false,
    "subId": "S131981091"
  },
  {
    "speciesCode": "sopsku1",
    "comName": "South Polar Skua",
    "sciName": "Stercorarius maccormicki",
    "locId": "L17150814",
    "locName": "Gand Island",
    "obsDt": "2023-03-23 11:42",
    "howMany": 2,
    "lat": -64.4143353,
    "lng": -62.8545758,
    "obsValid": true,
    "obsReviewed": false,
    "locationPrivate": false,
    "subId": "S131951364"
  },
  {
    "speciesCode": "norgip1",
    "comName": "Northern Giant-Petrel",
    "sciName": "Macronectes halli",
    "locId": "L23179476",
    "locName": "Auto selected230323drake",
    "obsDt": "2023-03-23 08:58",
    "howMany": 1,
    "lat": -57.7937911,
    "lng": -56.3058763,
    "obsValid": true,
    "obsReviewed": false,
    "locationPrivate": true,
    "subId": "S131591200"
  },
  {
    "speciesCode": "snopet1",
    "comName": "Snow Petrel",
    "sciName": "Pagodroma nivea",
    "locId": "L2941394",
    "locName": "Barcroft Islands",
    "obsDt": "2023-03-22 16:49",
    "howMany": 1,
    "lat": -66.4575,
    "lng": -67.139722,
    "obsValid": true,
    "obsReviewed": false,
    "locationPrivate": false,
    "subId": "S131951236"
  },
  {
    "speciesCode": "limalb1",
    "comName": "Light-mantled Albatross",
    "sciName": "Phoebetria palpebrata",
    "locId": "L23185262",
    "locName": "Auto selected -59.33950, -60.53566",
    "obsDt": "2023-03-20 17:36",
    "howMany": 2,
    "lat": -59.339501,
    "lng": -60.535664,
    "obsValid": true,
    "obsReviewed": false,
    "locationPrivate": true,
    "subId": "S131621072"
  },
  {
    "speciesCode": "adepen1",
    "comName": "Adelie Penguin",
    "sciName": "Pygoscelis adeliae",
    "locId": "L2941571",
    "locName": "Petermann Island",
    "obsDt": "2023-03-19 14:20",
    "howMany": 6,
    "lat": -65.17486,
    "lng": -64.136757,
    "obsValid": true,
    "obsReviewed": false,
    "locationPrivate": false,
    "subId": "S131459908"
  },
  {
    "speciesCode": "emppen1",
    "comName": "Emperor Penguin",
    "sciName": "Aptenodytes forsteri",
    "locId": "L23106900",
    "locName": "Weddell Sea",
    "obsDt": "2023-03-18 14:26",
    "howMany": 3,
    "lat": -65.1763138,
    "lng": -53.1257562,
    "obsValid": true,
    "obsReviewed": false,
    "locationPrivate": true,
    "subId": "S131206620"
  },
  {
    "speciesCode": "antpet1",
    "comName": "Antarctic Petrel",
    "sciName": "Thalassoica antarctica",
    "locId": "L23106900",
    "locName": "Weddell Sea",
    "obsDt": "2023-03-18 14:26",
    "howMany": 3,
    "lat": -65.1763138,
    "lng": -53.1257562,
    "obsValid": true,
    "obsReviewed": false,
    "locationPrivate": true,
    "subId": "S131206620"
  },
  {
    "speciesCode": "wanalb",
    "comName": "Wandering Albatross",
    "sciName": "Diomedea exulans",
    "locId": "L23101858",
    "locName": "Drake Passage",
    "obsDt": "2023-03-18 10:58",
    "howMany": 2,
    "lat": -59.3938889,
    "lng": -49.2863889,
    "obsValid": true,
    "obsReviewed": false,
    "locationPrivate": true,
    "subId": "S131182330"
  },
  {
    "speciesCode": "sooshe",
    "comName": "Sooty Shearwater",
    "sciName": "Ardenna grisea",
    "locId": "L23247626",
    "locName": "Drake Passage heading south",
    "obsDt": "2023-03-16 07:19",
    "howMany": 1,
    "lat": -59.4092356,
    "lng": -58.300616,
    "obsValid": true,
    "obsReviewed": false,
    "locationPrivate": true,
    "subId": "S131948913"
  }
]